{"help": "https://data.go.th/api/3/action/help_show?name=datastore_search", "success": true, "result": {"include_total": true, "resource_id": "df922923-e009-4dee-92fc-d963a86ce4b8", "fields": [{"type": "int", "id": "_id"}, {"type": "numeric", "id": "PROVINCE_ID"}, {"type": "text", "id": "PROVINCE_NAME"}, {"type": "numeric", "id": "LAT"}, {"type": "numeric", "id": "LNG"}], "records_format": "objects", "records": [{"_id":1,"PROVINCE_ID":11,"PROVINCE_NAME":"สมุทรปราการ","LAT":13.5967690000000001049329512170515954494476318359375,"LNG":100.599975999999998066414264030754566192626953125},{"_id":2,"PROVINCE_ID":12,"PROVINCE_NAME":"นนทบุรี","LAT":13.859432999999999225337887764908373355865478515625,"LNG":100.5165559999999942419890430755913257598876953125},{"_id":3,"PROVINCE_ID":13,"PROVINCE_NAME":"ปทุมธานี","LAT":14.0171229999999997772874849033541977405548095703125,"LNG":100.537859999999994897734723053872585296630859375},{"_id":4,"PROVINCE_ID":14,"PROVINCE_NAME":"พระนครศรีอยุธยา","LAT":14.365455000000000751469997339881956577301025390625,"LNG":100.576719999999994570316630415618419647216796875},{"_id":5,"PROVINCE_ID":15,"PROVINCE_NAME":"อ่างทอง","LAT":14.5856539999999998968860381864942610263824462890625,"LNG":100.455600000000004001776687800884246826171875},{"_id":6,"PROVINCE_ID":16,"PROVINCE_NAME":"ลพบุรี","LAT":14.7949099999999997834265741403214633464813232421875,"LNG":100.655789999999996098267729394137859344482421875},{"_id":7,"PROVINCE_ID":17,"PROVINCE_NAME":"สิงห์บุรี","LAT":14.8851420000000000953832568484358489513397216796875,"LNG":100.40739999999999554347596131265163421630859375},{"_id":8,"PROVINCE_ID":18,"PROVINCE_NAME":"ชัยนาท","LAT":15.1850179999999994606696418486535549163818359375,"LNG":100.1236200000000025056579033844172954559326171875},{"_id":9,"PROVINCE_ID":19,"PROVINCE_NAME":"สระบุรี","LAT":14.5281590000000004891944627161137759685516357421875,"LNG":100.90985000000000582076609134674072265625},{"_id":10,"PROVINCE_ID":20,"PROVINCE_NAME":"ชลบุรี","LAT":13.3589210000000004896492100670002400875091552734375,"LNG":100.983059999999994715835782699286937713623046875},{"_id":11,"PROVINCE_ID":21,"PROVINCE_NAME":"ระยอง","LAT":12.6652930000000001342641553492285311222076416015625,"LNG":101.276939999999996189217199571430683135986328125},{"_id":12,"PROVINCE_ID":22,"PROVINCE_NAME":"จันทบุรี","LAT":12.60692099999999982173903845250606536865234375,"LNG":102.1064199999999999590727384202182292938232421875},{"_id":13,"PROVINCE_ID":23,"PROVINCE_NAME":"ตราด","LAT":12.22884499999999974306774674914777278900146484375,"LNG":102.51546500000000605723471380770206451416015625},{"_id":14,"PROVINCE_ID":24,"PROVINCE_NAME":"ฉะเชิงเทรา","LAT":13.6858160000000008693632480571977794170379638671875,"LNG":101.0735600000000005138645065017044544219970703125},{"_id":15,"PROVINCE_ID":25,"PROVINCE_NAME":"ปราจีนบุรี","LAT":14.0478299999999993730170899652875959873199462890625,"LNG":101.3686139999999937799657345749437808990478515625},{"_id":16,"PROVINCE_ID":26,"PROVINCE_NAME":"นครนายก","LAT":14.20013900000000006684786058031022548675537109375,"LNG":101.2201500000000038426151149906218051910400390625},{"_id":17,"PROVINCE_ID":27,"PROVINCE_NAME":"สระแก้ว","LAT":13.807835000000000746922523831017315387725830078125,"LNG":102.0755999999999943383954814635217189788818359375},{"_id":18,"PROVINCE_ID":30,"PROVINCE_NAME":"นครราชสีมา","LAT":14.9678100000000000591171556152403354644775390625,"LNG":102.1031799999999947203832562081515789031982421875},{"_id":19,"PROVINCE_ID":31,"PROVINCE_NAME":"บุรีรัมย์","LAT":14.9902250000000005769607014372013509273529052734375,"LNG":103.12151000000000067302607931196689605712890625},{"_id":20,"PROVINCE_ID":32,"PROVINCE_NAME":"สุรินทร์","LAT":14.87821699999999935926098260097205638885498046875,"LNG":103.49605999999999994543031789362430572509765625},{"_id":21,"PROVINCE_ID":33,"PROVINCE_NAME":"ศรีสะเกษ","LAT":15.1172149999999998470912032644264400005340576171875,"LNG":104.3253500000000002501110429875552654266357421875},{"_id":22,"PROVINCE_ID":34,"PROVINCE_NAME":"อุบลราชธานี","LAT":15.227574000000000609134076512418687343597412109375,"LNG":104.8566799999999972214936860837042331695556640625},{"_id":23,"PROVINCE_ID":35,"PROVINCE_NAME":"ยโสธร","LAT":15.7909799999999993502797224209643900394439697265625,"LNG":104.142975000000006957634468562901020050048828125},{"_id":24,"PROVINCE_ID":36,"PROVINCE_NAME":"ชัยภูมิ","LAT":15.7143910000000008864162737154401838779449462890625,"LNG":102.002510000000000900399754755198955535888671875},{"_id":25,"PROVINCE_ID":37,"PROVINCE_NAME":"อำนาจเจริญ","LAT":15.8538850000000000051159076974727213382720947265625,"LNG":104.663849999999996498445398174226284027099609375},{"_id":26,"PROVINCE_ID":39,"PROVINCE_NAME":"หนองบัวลำภู","LAT":17.14759600000000006048139766789972782135009765625,"LNG":102.458020000000004756657290272414684295654296875},{"_id":27,"PROVINCE_ID":40,"PROVINCE_NAME":"ขอนแก่น","LAT":16.42568800000000095451468951068818569183349609375,"LNG":102.8380499999999955207385937683284282684326171875},{"_id":28,"PROVINCE_ID":41,"PROVINCE_NAME":"อุดรธานี","LAT":17.410703999999999069814293761737644672393798828125,"LNG":102.78915000000000645741238258779048919677734375},{"_id":29,"PROVINCE_ID":42,"PROVINCE_NAME":"เลย","LAT":17.487992999999999454985299962572753429412841796875,"LNG":101.7185400000000043974068830721080303192138671875},{"_id":30,"PROVINCE_ID":43,"PROVINCE_NAME":"หนองคาย","LAT":17.875901999999999958390617393888533115386962890625,"LNG":102.7435300000000069076122599653899669647216796875},{"_id":31,"PROVINCE_ID":44,"PROVINCE_NAME":"มหาสารคาม","LAT":16.177353000000000093905327958054840564727783203125,"LNG":103.3033199999999993679011822678148746490478515625},{"_id":32,"PROVINCE_ID":45,"PROVINCE_NAME":"ร้อยเอ็ด","LAT":16.04973400000000083309714682400226593017578125,"LNG":103.6576840000000032659954740665853023529052734375},{"_id":33,"PROVINCE_ID":46,"PROVINCE_NAME":"กาฬสินธุ์","LAT":16.42923499999999847887011128477752208709716796875,"LNG":103.50902600000000575164449401199817657470703125},{"_id":34,"PROVINCE_ID":47,"PROVINCE_NAME":"สกลนคร","LAT":17.175855999999999568217390333302319049835205078125,"LNG":104.163060000000001537046045996248722076416015625},{"_id":35,"PROVINCE_ID":48,"PROVINCE_NAME":"นครพนม","LAT":17.4079100000000011050360626541078090667724609375,"LNG":104.7817500000000023874235921539366245269775390625},{"_id":36,"PROVINCE_ID":49,"PROVINCE_NAME":"มุกดาหาร","LAT":16.534684999999999632791514159180223941802978515625,"LNG":104.717050000000000409272615797817707061767578125},{"_id":37,"PROVINCE_ID":50,"PROVINCE_NAME":"เชียงใหม่","LAT":18.74217399999999855708665563724935054779052734375,"LNG":98.988619999999997389750205911695957183837890625},{"_id":38,"PROVINCE_ID":51,"PROVINCE_NAME":"ลำพูน","LAT":18.57497000000000042518877307884395122528076171875,"LNG":99.013270000000005666151992045342922210693359375},{"_id":39,"PROVINCE_ID":52,"PROVINCE_NAME":"ลำปาง","LAT":18.2918599999999997862687450833618640899658203125,"LNG":99.5044999999999930651028989814221858978271484375},{"_id":40,"PROVINCE_ID":53,"PROVINCE_NAME":"อุตรดิตถ์","LAT":17.62196000000000140062184073030948638916015625,"LNG":100.099050000000005411493475548923015594482421875},{"_id":41,"PROVINCE_ID":54,"PROVINCE_NAME":"แพร่","LAT":18.1422460000000000945874489843845367431640625,"LNG":100.144800000000003592504072003066539764404296875},{"_id":42,"PROVINCE_ID":55,"PROVINCE_NAME":"น่าน","LAT":18.790178000000000935187927098013460636138916015625,"LNG":100.7316000000000002501110429875552654266357421875},{"_id":43,"PROVINCE_ID":56,"PROVINCE_NAME":"พะเยา","LAT":19.188331999999999055717125884257256984710693359375,"LNG":99.880774999999999863575794734060764312744140625},{"_id":44,"PROVINCE_ID":57,"PROVINCE_NAME":"เชียงราย","LAT":19.9051299999999997680788510479032993316650390625,"LNG":99.8349999999999937472239253111183643341064453125},{"_id":45,"PROVINCE_ID":58,"PROVINCE_NAME":"แม่ฮ่องสอน","LAT":19.3005619999999993297024047933518886566162109375,"LNG":97.97966999999999870851752348244190216064453125},{"_id":46,"PROVINCE_ID":60,"PROVINCE_NAME":"นครสวรรค์","LAT":15.7019830000000002456772563164122402667999267578125,"LNG":100.140399999999999636202119290828704833984375},{"_id":47,"PROVINCE_ID":61,"PROVINCE_NAME":"อุทัยธานี","LAT":15.3762139999999991601953297504223883152008056640625,"LNG":100.027749999999997498889570124447345733642578125},{"_id":48,"PROVINCE_ID":62,"PROVINCE_NAME":"กำแพงเพชร","LAT":16.480866999999999933379513095133006572723388671875,"LNG":99.5237350000000020600054995156824588775634765625},{"_id":49,"PROVINCE_ID":63,"PROVINCE_NAME":"ตาก","LAT":16.878332000000000334694050252437591552734375,"LNG":99.1267500000000012505552149377763271331787109375},{"_id":50,"PROVINCE_ID":64,"PROVINCE_NAME":"สุโขทัย","LAT":17.00505799999999823057805770076811313629150390625,"LNG":99.8257899999999978035702952183783054351806640625},{"_id":51,"PROVINCE_ID":65,"PROVINCE_NAME":"พิษณุโลก","LAT":16.821161000000000029785951483063399791717529296875,"LNG":100.2623099999999993769961292855441570281982421875},{"_id":52,"PROVINCE_ID":66,"PROVINCE_NAME":"พิจิตร","LAT":16.43887000000000142563294502906501293182373046875,"LNG":100.3519739999999984547685016877949237823486328125},{"_id":53,"PROVINCE_ID":67,"PROVINCE_NAME":"เพชรบูรณ์","LAT":16.439750000000000085265128291212022304534912109375,"LNG":101.151240000000001373336999677121639251708984375},{"_id":54,"PROVINCE_ID":70,"PROVINCE_NAME":"ราชบุรี","LAT":13.535441999999999751480572740547358989715576171875,"LNG":99.82526400000000421641743741929531097412109375},{"_id":55,"PROVINCE_ID":71,"PROVINCE_NAME":"กาญจนบุรี","LAT":14.0009399999999999408828443847596645355224609375,"LNG":99.5528199999999969804775901138782501220703125},{"_id":56,"PROVINCE_ID":72,"PROVINCE_NAME":"สุพรรณบุรี","LAT":14.4717830000000002854676495189778506755828857421875,"LNG":100.1217999999999932470018393360078334808349609375},{"_id":57,"PROVINCE_ID":73,"PROVINCE_NAME":"นครปฐม","LAT":13.81659499999999951569407130591571331024169921875,"LNG":100.0686400000000020327206584624946117401123046875},{"_id":58,"PROVINCE_ID":74,"PROVINCE_NAME":"สมุทรสาคร","LAT":13.5455330000000007117932909750379621982574462890625,"LNG":100.2766649999999941655914881266653537750244140625},{"_id":59,"PROVINCE_ID":75,"PROVINCE_NAME":"สมุทรสงคราม","LAT":13.4109180000000005605897968052886426448822021484375,"LNG":100.0058700000000015961632016114890575408935546875},{"_id":60,"PROVINCE_ID":76,"PROVINCE_NAME":"เพชรบุรี","LAT":13.1082599999999995787902662414126098155975341796875,"LNG":99.9465100000000035151970223523676395416259765625},{"_id":61,"PROVINCE_ID":77,"PROVINCE_NAME":"ประจวบคีรีขันธ์","LAT":11.808488000000000539557731826789677143096923828125,"LNG":99.79586000000000467480276711285114288330078125},{"_id":62,"PROVINCE_ID":80,"PROVINCE_NAME":"นครศรีธรรมราช","LAT":8.4167339999999999378132997662760317325592041015625,"LNG":99.96557599999999865758582018315792083740234375},{"_id":63,"PROVINCE_ID":81,"PROVINCE_NAME":"กระบี่","LAT":8.057902999999999593683241982944309711456298828125,"LNG":98.92104000000000496584107168018817901611328125},{"_id":64,"PROVINCE_ID":82,"PROVINCE_NAME":"พังงา","LAT":8.4628730000000000899262886377982795238494873046875,"LNG":98.53757500000000391082721762359142303466796875},{"_id":65,"PROVINCE_ID":83,"PROVINCE_NAME":"ภูเก็ต","LAT":7.88650200000000012323653209023177623748779296875,"LNG":98.3876499999999936107997200451791286468505859375},{"_id":66,"PROVINCE_ID":84,"PROVINCE_NAME":"สุราษฎร์ธานี","LAT":9.1399039999999995842472344520501792430877685546875,"LNG":99.3399399999999985766407917253673076629638671875},{"_id":67,"PROVINCE_ID":85,"PROVINCE_NAME":"ระนอง","LAT":9.9644150000000006883738024043850600719451904296875,"LNG":98.6359800000000035424818634055554866790771484375},{"_id":68,"PROVINCE_ID":86,"PROVINCE_NAME":"ชุมพร","LAT":10.4900439999999992579660101910121738910675048828125,"LNG":99.1818540000000012923919712193310260772705078125},{"_id":69,"PROVINCE_ID":90,"PROVINCE_NAME":"สงขลา","LAT":7.17508500000000015717205315013416111469268798828125,"LNG":100.6165199999999941837813821621239185333251953125},{"_id":70,"PROVINCE_ID":91,"PROVINCE_NAME":"สตูล","LAT":6.643755999999999772853698232211172580718994140625,"LNG":100.0892000000000052750692702829837799072265625},{"_id":71,"PROVINCE_ID":92,"PROVINCE_NAME":"ตรัง","LAT":7.55627199999999987767296261154115200042724609375,"LNG":99.60570500000000038198777474462985992431640625},{"_id":72,"PROVINCE_ID":93,"PROVINCE_NAME":"พัทลุง","LAT":7.61605500000000024130031306413002312183380126953125,"LNG":100.0751900000000063073457567952573299407958984375},{"_id":73,"PROVINCE_ID":94,"PROVINCE_NAME":"ปัตตานี","LAT":6.86600099999999979871745381387881934642791748046875,"LNG":101.2626800000000031332092476077377796173095703125},{"_id":74,"PROVINCE_ID":95,"PROVINCE_NAME":"ยะลา","LAT":6.53844799999999981565679263439960777759552001953125,"LNG":101.2842250000000063892002799548208713531494140625},{"_id":75,"PROVINCE_ID":96,"PROVINCE_NAME":"นราธิวาส","LAT":6.4227550000000004359890226623974740505218505859375,"LNG":101.82576000000000249201548285782337188720703125},{"_id":76,"PROVINCE_ID":38,"PROVINCE_NAME":"บึงกาฬ","LAT":18.3536569999999983338057063519954681396484375,"LNG":103.6562899999999984856913215480744838714599609375}], "_links": {"start": "/api/3/action/datastore_search?resource_id=df922923-e009-4dee-92fc-d963a86ce4b8", "next": "/api/3/action/datastore_search?offset=100&resource_id=df922923-e009-4dee-92fc-d963a86ce4b8"}, "total": 76}}